{"type":"FeatureCollection","features":[{"type":"Feature","properties":{"marker-color":"#008000","marker-size":"medium","marker-symbol":"warehouse","Name":"Cedar East","Description":"An apartment run by the University of Washington (Seattle), and also my current residence."},"geometry":{"type":"Point","coordinates":[-122.31585502624512,47.65715332562002]}},{"type":"Feature","properties":{"marker-color":"#800080","marker-size":"medium","marker-symbol":"cafe","Name":"Husky Union Building (HUB)","Description":"UW's building that provides entertainment, food, spaces for events and more. The piano located on the second floor is my daily hangout spot with the best of my friends."},"geometry":{"type":"Point","coordinates":[-122.3051691055298,47.65532858402682]}},{"type":"Feature","properties":{"marker-color":"#ffff00","marker-size":"medium","marker-symbol":"commercial","Name":"QFC - University Village","Description":"A QFC branch located in University Village. This is where I purchase ingredients for most of my meals during the weekdays. "},"geometry":{"type":"Point","coordinates":[-122.29626417160036,47.66215026179226]}},{"type":"Feature","properties":{"marker-color":"#7e7e7e","marker-size":"medium","marker-symbol":"basketball","Name":"Intramural Activities Building (IMA)","Description":"UW's facilities catering to various types of sports. This is where I used to badminton almost daily for almost 2 years in a row."},"geometry":{"type":"Point","coordinates":[-122.30110287666321,47.65355075465217]}},{"type":"Feature","properties":{"marker-color":"#ff8000","marker-size":"medium","marker-symbol":"restaurant","Name":"Bluefin Sushi & Seafood Buffet","Description":"An expensive buffet that opens on lunch and dinner hours every day of the week. I usually find myself digging into an unspeakable amount of raw Salmon with friends on special occasions."},"geometry":{"type":"Point","coordinates":[-122.32659459114073,47.70476555533853]}},{"type":"Feature","properties":{"marker-color":"#0000ff","marker-size":"medium","marker-symbol":"bank","Name":"Chase Bank","Description":"A regular Chase Bank that I visit whenever I have to take care of financial concerns."},"geometry":{"type":"Point","coordinates":[-122.31338202953337,47.661391538723386]}},{"type":"Feature","properties":{"marker-color":"#008000","marker-size":"medium","marker-symbol":"commercial","Name":"Dollar Tree","Description":"Student's best friend. I end up here near the end of the month, when stress levels are high, and personal funds are low."},"geometry":{"type":"Point","coordinates":[-122.31337130069733,47.66223697229801]}},{"type":"Feature","properties":{"marker-color":"#ff0000","marker-size":"medium","marker-symbol":"restaurant","Name":"Musashi's","Description":"A cheap sushi joint that has fewer than 20 seats and accepts cash only. This place is popular among UW students, and is packed on weekends. They are closed on Sundays and Mondays."},"geometry":{"type":"Point","coordinates":[-122.34048038721085,47.661557736148296]}},{"type":"Feature","properties":{"marker-color":"#ff00ff","marker-size":"medium","marker-symbol":"restaurant","Name":"Menchie's Frozen Yogurt","Description":"On Fridays at 9PM until 11PM, every cup no matter the weight will cost you $5 + tax. Many of my sweet-toothed friends show up here during Friday nights. "},"geometry":{"type":"Point","coordinates":[-122.29934334754944,47.66199490510928]}},{"type":"Feature","properties":{"marker-color":"#008000","marker-symbol":"warehouse","marker-size":"medium","Name":"Hansee Hall","Description":"Another of UW's housing buildings much like the Cedar Apartments. I used to show up here so often I would call it my second home simply because there are so many grand pianos here just waiting to be played."},"geometry":{"type":"Point","coordinates":[-122.3065048456192,47.660813456602945]}}]}